{"type":"FeatureCollection","features":[{"type":"Feature","geometry":{"type":"Point","coordinates":[7.145392,51.2670186]},"properties":{"marker-symbol":"hs","name":"/dev/tal","url":"http://devtal.de/","address":"Mirker Str. 48, 42105 Wuppertal, Germany","email":"info@devtal.de","description":""}},{"type":"Feature","geometry":{"type":"Point","coordinates":[8.21988,53.14402]},"properties":{"marker-symbol":"hs-open","name":"Mainframe","url":"http://mainframe.io/","address":"Bahnhofsplatz 10, 26122 Oldenburg, Germany","email":"vorstand@kreativitaet-trifft-technik.de","description":""}},{"type":"Feature","geometry":{"type":"Point","coordinates":[11.03965,50.98271]},"properties":{"marker-symbol":"hs-closed","name":"Bytespeicher","url":"https://www.bytespeicher.org","address":"Liebknechtstrasse 8, 99085 Erfurt, Germany","email":"kontakt@technikkultur-erfurt.de","description":"No devices connected"}},{"type":"Feature","geometry":{"type":"Point","coordinates":[8.54924,47.37861]},"properties":{"marker-symbol":"hs-open","name":"Bastli","url":"http://www.bastli.ch/","address":"AMIV Bastli, CAB E38, Universitätsstrasse 6, 8092 Zürich, Switzerland","email":"go to http://bastli.ch/index.php?page=info","description":""}},{"type":"Feature","geometry":{"type":"Point","coordinates":[13.4961541,52.5082224]},"properties":{"marker-symbol":"hs-open","name":"AFRA","url":"https://afra-berlin.de","address":"Margaretenstr. 30, 10317 Berlin, Germany","email":"info@afra-berlin.de","description":""}},{"type":"Feature","geometry":{"type":"Point","coordinates":[9.94459,53.55836]},"properties":{"marker-symbol":"hs-closed","name":"CCCHH","url":"https://hamburg.ccc.de/","address":"Zeiseweg 9, 22765 Hamburg, Germany","email":"mail@hamburg.ccc.de","description":""}},{"type":"Feature","geometry":{"type":"Point","coordinates":[-1.651,48.106]},"properties":{"marker-symbol":"hs-open","name":"Breizh-Entropy","url":"http://breizh-entropy.org","address":"48 Boulevard Villebois Mareuil, 35000 Rennes, France","email":"contact@breizh-entropy.org","description":""}},{"type":"Feature","geometry":{"type":"Point","coordinates":[0,0]},"properties":{"marker-symbol":"hs","name":"Unknown","url":"","address":"","email":"","description":""}},{"type":"Feature","geometry":{"type":"Point","coordinates":[7.024991,51.438476]},"properties":{"marker-symbol":"hs-open","name":"chaospott","url":"http://chaospott.de","address":"Sibyllastr. 9, 45136 Essen, Germany","email":"info@chaospott.de","description":""}},{"type":"Feature","geometry":{"type":"Point","coordinates":[9.94459,53.55836]},"properties":{"marker-symbol":"hs-closed","name":"CCCHH","url":"https://hamburg.ccc.de/","address":"Zeiseweg 9, 22765 Hamburg, Germany","email":"mail@hamburg.ccc.de","description":""}},{"type":"Feature","geometry":{"type":"Point","coordinates":[6.9129647,50.9504142]},"properties":{"marker-symbol":"hs-open","name":"CCC Cologne","url":"https://koeln.ccc.de/","address":"Chaos Computer Club Cologne (c4) e.V., Heliosstr. 6a, 50825 Köln, Germany","email":"mail@koeln.ccc.de","description":""}},{"type":"Feature","geometry":{"type":"Point","coordinates":[6.78347,51.21656]},"properties":{"marker-symbol":"hs-closed","name":"Chaosdorf","url":"https://chaosdorf.de","address":"Chaos Computer Club Düsseldorf / Chaosdorf e.V., Hüttenstr. 25, 40215 Düsseldorf, Germany","email":"mail@chaosdorf.de","description":""}},{"type":"Feature","geometry":{"type":"Point","coordinates":[8.48862,49.46369]},"properties":{"marker-symbol":"hs-open","name":"CCC Mannheim","url":"https://www.ccc-mannheim.de/","address":"CCC Mannheim e.V, Neckarauer Straße 106-116, 68163 Mannheim","email":"info@ccc-mannheim.de","description":""}},{"type":"Feature","geometry":{"type":"Point","coordinates":[-2.095607,57.14731]},"properties":{"marker-symbol":"hs-closed","name":"57North Hacklab","url":"https://57north.org.uk/","address":"35a Union Street, Aberdeen, United Kingdom","email":"contact@57north.co","description":"done and done"}},{"type":"Feature","geometry":{"type":"Point","coordinates":[6.122581,49.620709]},"properties":{"marker-symbol":"hs-closed","name":"ChaosStuff","url":"https://wiki.c3l.lu/doku.php?id=chaosstuff:bootstrap","address":"60 Victor Hugo Avenue, Luxembourg-Limpertsberg, L-1750, Luxembourg","email":"info@c3l.lu","description":""}},{"type":"Feature","geometry":{"type":"Point","coordinates":[7.024991,51.438476]},"properties":{"marker-symbol":"hs-open","name":"Chaospott","url":"http://chaospott.de","address":"Sibyllastr. 9, 45136 Essen, Germany","email":"info@die-foobar.de","description":"unten"}},{"type":"Feature","geometry":{"type":"Point","coordinates":[6.93012,50.953546]},"properties":{"marker-symbol":"hs-closed","name":"Dingfabrik","url":"http://dingfabrik.de","address":"Fritz-Voigt-Str. 1, 50823 Cologne, Germany","email":"post@dingfabrik.de","description":""}},{"type":"Feature","geometry":{"type":"Point","coordinates":[11.0292046,49.4604503]},"properties":{"marker-symbol":"hs-open","name":"FabLab Nürnberg","url":"http://fablab-nuernberg.de/","address":"Fab Lab Nürnberg e.V., Muggenhofer Straße 141, 90429 Nürnberg, Germany","email":"","description":"BETA! Also check calendar!"}},{"type":"Feature","geometry":{"type":"Point","coordinates":[5.8005792,53.1997015]},"properties":{"marker-symbol":"hs-closed","name":"Frack","url":"https://frack.nl","address":"Blokhuisplein 40, 8911 LJ, Leeuwarden, The Netherlands","email":"info@frack.nl","description":"Sorry, we zijn gesloten"}},{"type":"Feature","geometry":{"type":"Point","coordinates":[9.42341,54.8045]},"properties":{"marker-symbol":"hs-closed","name":"Chaostreff Flensburg","url":"https://chaostreff-flensburg.de/","address":"Apenrader Str. 49, 24939 Flensburg","email":"mail@chaostreff-flensburg.de","description":""}},{"type":"Feature","geometry":{"type":"Point","coordinates":[5.414782,52.177323]},"properties":{"marker-symbol":"hs-open","name":"Bitlair","url":"https://bitlair.nl/","address":"Computerweg 20A, 3821 AB Amersfoort, The Netherlands","email":"info@bitlair.nl","description":""}},{"type":"Feature","geometry":{"type":"Point","coordinates":[11.99221,51.47996]},"properties":{"marker-symbol":"hs-closed","name":"Eigenbaukombinat Halle e.V.","url":"http://www.eigenbaukombinat.de","address":"Landsberger Straße 3, 06112 Halle, Germany","email":"info@eigenbaukombinat.de","description":""}},{"type":"Feature","geometry":{"type":"Point","coordinates":[13.7286123,51.0810791]},"properties":{"marker-symbol":"hs-open","name":"C3D2","url":"https://www.c3d2.de/","address":"Raum 1.04.01, Haus B, Zentralwerk, Riesaer Str. 32, 01127 Dresden, Germany","email":"mail@c3d2.de","description":"GCHQ is on (unlocked)"}},{"type":"Feature","geometry":{"type":"Point","coordinates":[7.4157,46.9477]},"properties":{"marker-symbol":"hs","name":"Chaostreff Bern","url":"https://www.chaostreffbern.ch","address":"Güterstrasse 8, 3008 Bern, Switzerland","email":"chaosbern@chaostreff.ch","description":"Open every Tuesday from 19h"}},{"type":"Feature","geometry":{"type":"Point","coordinates":[5.9026,52.03746]},"properties":{"marker-symbol":"hs-closed","name":"Hack42","url":"https://hack42.nl/","address":"Koningsweg 31a, 6816TG Arnhem, Nederland","email":"info@hack42.nl","description":""}},{"type":"Feature","geometry":{"type":"Point","coordinates":[49.502732,10.4131025]},"properties":{"marker-symbol":"hs-open","name":"FabLab Neustadt a. d. Aisch - Bad Windsheim","url":"https://www.fablab-nea.de","address":"Spitalwall 16, 91438 Bad Windsheim","email":"info@fablab-nea.de","description":""}},{"type":"Feature","geometry":{"type":"Point","coordinates":[8.459608,55.46469]},"properties":{"marker-symbol":"hs-closed","name":"GeekLabs","url":"http://geeklabs.dk","address":"Gasværksgade 2, kælderen, 6700 Esbjerg","email":"geeklabs@mikini.dk","description":""}},{"type":"Feature","geometry":{"type":"Point","coordinates":[11.03,49.574]},"properties":{"marker-symbol":"hs-closed","name":"FAU FabLab","url":"https://fablab.fau.de/","address":"Raum U1.239 Erwin-Rommel-Straße 60 91058 Erlangen Germany","email":"","description":"door is closed"}},{"type":"Feature","geometry":{"type":"Point","coordinates":[8.8410057,47.2359607]},"properties":{"marker-symbol":"hs-closed","name":"coredump","url":"https://www.coredump.ch/","address":"Holzwiesstrasse 50, 8645 Jona, Switzerland","email":"vorstand@lists.coredump.ch","description":"Open Mondays from 20:00"}},{"type":"Feature","geometry":{"type":"Point","coordinates":[8.407438,49.0067]},"properties":{"marker-symbol":"hs-open","name":"Entropia","url":"https://entropia.de/","address":"Entropia e.V., Gewerbehof, Steinstraße 23, 76133 Karlsruhe, Germany","email":"info@entropia.de","description":""}},{"type":"Feature","geometry":{"type":"Point","coordinates":[14.28383,48.30573]},"properties":{"marker-symbol":"hs-closed","name":"DevLoL","url":"https://devlol.org","address":"Hofgasse 19, 4020 Linz, Austria","email":"","description":""}},{"type":"Feature","geometry":{"type":"Point","coordinates":[12.33794,51.33652]},"properties":{"marker-symbol":"hs","name":"dezentrale","url":"https://dezentrale.space","address":"Hinterhaus, Dreilindenstraße 19, 04177 Leipzig, Germany","email":"vorstand@dezentrale.space","description":""}},{"type":"Feature","geometry":{"type":"Point","coordinates":[15.459288,47.05887]},"properties":{"marker-symbol":"hs-closed","name":"HTU Graz - Basisgruppe Informatik","url":"http://bis.htu.tugraz.at","address":"Inffeldgasse 16b, 8010 Graz, Austria","email":"bis@htu.tugraz.at","description":""}},{"type":"Feature","geometry":{"type":"Point","coordinates":[15.459288,47.05834]},"properties":{"marker-symbol":"hs-closed","name":"HTU Graz - E-Lab","url":"http://elab.htu.tugraz.at","address":"Inffeldgasse 18, 8010 Graz, Austria","email":"elab@htu.tugraz.at","description":""}},{"type":"Feature","geometry":{"type":"Point","coordinates":[0,0]},"properties":{"marker-symbol":"hs","name":"Garoa Hacker Clube","url":"https://garoa.net.br","address":"","email":"","description":""}},{"type":"Feature","geometry":{"type":"Point","coordinates":[10.753475,59.919293]},"properties":{"marker-symbol":"hs-closed","name":"Hackeriet","url":"https://hackeriet.no","address":"Hausmania, Hausmannsgate 34, 0182 Oslo, Norway","email":"styret@__SOPPELPOST__hackeriet.no","description":"The space is closed."}},{"type":"Feature","geometry":{"type":"Point","coordinates":[0,0]},"properties":{"marker-symbol":"hs","name":"Apollo-NG","url":"https://apollo.open-resource.org","address":"","email":"","description":""}},{"type":"Feature","geometry":{"type":"Point","coordinates":[-2.23616,53.484167]},"properties":{"marker-symbol":"hs-open","name":"Hackspace Manchester","url":"http://hacman.org.uk","address":"42 Edge Street, Northern Quarter, Manchester, M4 1HN","email":"hacmanchester@gmail.com","description":"Open for members."}},{"type":"Feature","geometry":{"type":"Point","coordinates":[15.459473,47.058817]},"properties":{"marker-symbol":"hs-open","name":"HTU Graz - Basisgruppe Telematik","url":"http://telematik.edu","address":"Inffeldgasse 16b, 8010 Graz, Austria","email":"basisgruppe@telematik.edu","description":""}},{"type":"Feature","geometry":{"type":"Point","coordinates":[11.3961,47.2578]},"properties":{"marker-symbol":"hs-open","name":"IT-Syndikat","url":"http://it-syndikat.org","address":"Tschamlerstrasse 3, 6020 Innsbruck, Austria","email":"wir@it-syndikat.org","description":""}},{"type":"Feature","geometry":{"type":"Point","coordinates":[11.082,49.448]},"properties":{"marker-symbol":"hs-closed","name":"K4CG","url":"https://k4cg.org","address":"Koenigstr. 93, 90402 Nuremberg, Germany","email":"info@k4cg.org","description":""}},{"type":"Feature","geometry":{"type":"Point","coordinates":[8.533056,52.038224]},"properties":{"marker-symbol":"hs-open","name":"Hackerspace Bielefeld e.V.","url":"https://hackerspace-bielefeld.de","address":"Sudbrackstrasse 42, 33611 Bielefeld, Germany","email":"info@hackerspace-bielefeld.de","description":"https://hackerspace-bielefeld.de/spacestatus/display.php"}},{"type":"Feature","geometry":{"type":"Point","coordinates":[8.00464,50.86904]},"properties":{"marker-symbol":"hs-open","name":"Hackspace Siegen","url":"http://hasi.it","address":"Effertsufer 104, 57072 Siegen, Germany","email":"kontakt@hasi.it","description":""}},{"type":"Feature","geometry":{"type":"Point","coordinates":[2.385677,48.848585]},"properties":{"marker-symbol":"hs-open","name":"Le Loop","url":"https://leloop.org/","address":"20, rue de Reuilly, 75012 Paris, FRANCE","email":"contact@leloop.org","description":""}},{"type":"Feature","geometry":{"type":"Point","coordinates":[6.567441,53.20972]},"properties":{"marker-symbol":"hs-closed","name":"Maakplek","url":"http://www.maakplek.nl","address":"Maakplek, Achterweg 1, 9725 BM, Groningen, The Netherlands","email":"welkom@maakplek.nl","description":""}},{"type":"Feature","geometry":{"type":"Point","coordinates":[4.85423,52.35406]},"properties":{"marker-symbol":"hs-closed","name":"LAG","url":"http://laglab.org","address":"Eerste Schinkelstraat 16, 1075 TX Amsterdam, The Netherlands","email":"info@laglab.org","description":""}},{"type":"Feature","geometry":{"type":"Point","coordinates":[47.5323266,7.6342312]},"properties":{"marker-symbol":"hs-closed","name":"Chaostreff Basel","url":"https://wiki.chaostreff.ch/Chaostreff","address":"Birsfelderstrasse 6, 4132 Muttenz, Switzerland","email":"chaos@chaostreff.ch","description":""}},{"type":"Feature","geometry":{"type":"Point","coordinates":[9.719891,52.371484]},"properties":{"marker-symbol":"hs-open","name":"LeineLab","url":"https://leinelab.org","address":"LeineLab, Glockseestrasse 35, 30169 Hannover","email":"anfragen@leinelab.org","description":""}},{"type":"Feature","geometry":{"type":"Point","coordinates":[13.055834,47.794274]},"properties":{"marker-symbol":"hs-closed","name":"Salzburg","url":"https://sbg.chaostreff.at","address":"","email":"","description":""}},{"type":"Feature","geometry":{"type":"Point","coordinates":[8.21988,53.14402]},"properties":{"marker-symbol":"hs-open","name":"Mainframe","url":"http://mainframe.io/","address":"Bahnhofsplatz 10, 26122 Oldenburg, Germany","email":"vorstand@kreativitaet-trifft-technik.de","description":""}},{"type":"Feature","geometry":{"type":"Point","coordinates":[6.591292,46.532372]},"properties":{"marker-symbol":"hs-closed","name":"FIXME","url":"https://fixme.ch","address":"Chemin du Closel 5, 1020 Renens, Switzerland","email":"info@fixme.ch","description":"The space is closed."}},{"type":"Feature","geometry":{"type":"Point","coordinates":[19.059444,47.489167]},"properties":{"marker-symbol":"hs-closed","name":"H.A.C.K.","url":"https://hsbp.org","address":"Bástya u. 12., 1056 Budapest, Hungary","email":"hack@hsbp.org","description":""}},{"type":"Feature","geometry":{"type":"Point","coordinates":[12.939537,50.830659]},"properties":{"marker-symbol":"hs-open","name":"Chaostreff Chemnitz","url":"https://chaoschemnitz.de","address":"Augustusburger Str. 102, 09126 Chemnitz, Germany","email":"","description":"Öffentlich | Public"}},{"type":"Feature","geometry":{"type":"Point","coordinates":[5.71129,45.18495]},"properties":{"marker-symbol":"hs-open","name":"Laboratoire Ouvert Grenoblois","url":"https://www.logre.eu","address":"45, rue Nicolas Chorier - 38000 Grenoble","email":"contact@logre.eu","description":""}},{"type":"Feature","geometry":{"type":"Point","coordinates":[-3.694596,40.4036]},"properties":{"marker-symbol":"hs-open","name":"MakeSpace Madrid","url":"http://makespacemadrid.org/","address":"Pedro Unanue 16 , 28045 Madrid, Spain","email":"","description":"Making"}},{"type":"Feature","geometry":{"type":"Point","coordinates":[-0.0607,51.5321]},"properties":{"marker-symbol":"hs","name":"London Hackspace","url":"https://london.hackspace.org.uk","address":"447 Hackney Road, London E2 9DY","email":"contact@london.hackspace.org.uk","description":"members only"}},{"type":"Feature","geometry":{"type":"Point","coordinates":[6.656069,49.758097]},"properties":{"marker-symbol":"hs-closed","name":"Maschinendeck","url":"http://maschinendeck.org","address":"Güterstraße 74, 54295 Trier, Germany","email":"","description":""}},{"type":"Feature","geometry":{"type":"Point","coordinates":[0,0]},"properties":{"marker-symbol":"hs","name":"Hackerspace Bremen e.V.","url":"http://www.hackerspace-bremen.de","address":"","email":"info@hackerspace-bremen.de","description":""}},{"type":"Feature","geometry":{"type":"Point","coordinates":[-100.307364,25.679919]},"properties":{"marker-symbol":"hs-closed","name":"HSMTY","url":"http://hsmty.org","address":"Isaac Garza 735-A, Centro. C.P. 64000 Monterrey, Nuevo León, México","email":"","description":""}},{"type":"Feature","geometry":{"type":"Point","coordinates":[50.47848,30.491779]},"properties":{"marker-symbol":"hs","name":"Hacklab","url":"http://hacklab.kiev.ua","address":"Novokostyantynivska Street 1B, Kyiv, Ukraine","email":"","description":""}},{"type":"Feature","geometry":{"type":"Point","coordinates":[11.5482333,48.158752]},"properties":{"marker-symbol":"hs-closed","name":"Munich Maker Lab","url":"https://munichmakerlab.de/","address":"Dachauer Str. 112f, 80636 München, Germany","email":"info@munichmakerlab.de","description":""}},{"type":"Feature","geometry":{"type":"Point","coordinates":[11.4183,53.6011]},"properties":{"marker-symbol":"hs-closed","name":"Hacklabor","url":"http://hacklabor.de","address":"Hagenower Str. 73, 19061 Schwerin, Germany","email":"inbox@hacklabor.de","description":"Sorry we're closed!"}},{"type":"Feature","geometry":{"type":"Point","coordinates":[7.0965597,50.7396374]},"properties":{"marker-symbol":"hs-closed","name":"Netzladen","url":"http://netzladen.org","address":"Netzladen e.V., Breite Straße 74, 53111 Bonn, Germany","email":"info@netzladen.org","description":""}},{"type":"Feature","geometry":{"type":"Point","coordinates":[11.56078,48.15367]},"properties":{"marker-symbol":"hs-open","name":"MuCCC","url":"https://muc.ccc.de","address":"Heßstrasse 90, München, Germany","email":"info@muc.ccc.de","description":"members only"}},{"type":"Feature","geometry":{"type":"Point","coordinates":[5.669681,51.97]},"properties":{"marker-symbol":"hs-open","name":"NURDSpace","url":"http://nurdspace.nl/","address":"Vergersweg 22-24, 6707 HT Wageningen, The Netherlands","email":"","description":"Space is OPEN"}},{"type":"Feature","geometry":{"type":"Point","coordinates":[11.629398,52.119561]},"properties":{"marker-symbol":"hs-closed","name":"Netz39","url":"http://www.netz39.de","address":"Leibnizstr. 32, 39104 Magdeburg, Germany","email":"kontakt@netz39.de","description":""}},{"type":"Feature","geometry":{"type":"Point","coordinates":[0,0]},"properties":{"marker-symbol":"hs","name":"Arch Reactor","url":"https://archreactor.org","address":"2215 Scott Avenue Saint Louis, MO 63103","email":"admin@archreactor.org","description":""}},{"type":"Feature","geometry":{"type":"Point","coordinates":[9.947232,52.168625]},"properties":{"marker-symbol":"hs-closed","name":"Freies Labor","url":"https://freieslabor.org","address":"Richthofenstr. 29, 31137 Hildesheim, Germany","email":"kontakt@freieslabor.org","description":"We're closed."}},{"type":"Feature","geometry":{"type":"Point","coordinates":[-77.035854,38.93355]},"properties":{"marker-symbol":"hs-closed","name":"HacDC","url":"http://hacdc.org","address":"1525 Newton St NW Washington, DC, USA 20010","email":"info@hacdc.org","description":""}},{"type":"Feature","geometry":{"type":"Point","coordinates":[-47.0771249,-22.9081486]},"properties":{"marker-symbol":"hs-closed","name":"Laboratorio Hacker de Campinas","url":"http://lhc.net.br","address":"Dr. Salles de Oliveira, 1800 - Campinas - SP, Brazil","email":"hsc@listas.tia.mat.br","description":""}},{"type":"Feature","geometry":{"type":"Point","coordinates":[4.3901992,52.0777306]},"properties":{"marker-symbol":"hs-open","name":"RevSpace","url":"https://revspace.nl/","address":"Overgoo 1, 2266 JZ Leidschendam, The Netherlands","email":"board@revspace.nl","description":"Open for visitors every tuesday-evening, or when we are open"}},{"type":"Feature","geometry":{"type":"Point","coordinates":[10.1872507,56.1732918]},"properties":{"marker-symbol":"hs-closed","name":"Open Space Aarhus","url":"http://osaa.dk","address":"Open Space Aarhus, Katrinebjergvej 105, 8200 Aarhus N, Denmark","email":"info@osaa.dk","description":""}},{"type":"Feature","geometry":{"type":"Point","coordinates":[11.036885,50.973251]},"properties":{"marker-symbol":"hs-closed","name":"Makerspace Erfurt","url":"https://makerspace-erfurt.de","address":"Buessleber Gasse 1, 99084 Erfurt, Germany","email":"vorstand@technikkultur-erfurt.de","description":"No devices connected"}},{"type":"Feature","geometry":{"type":"Point","coordinates":[125.768333,39.058056]},"properties":{"marker-symbol":"hs-closed","name":"P'yŏngyang Hackerspace","url":"http://status.pyongyanghackerspace.org","address":"Kim Il-sung University, 1001 P'yŏngyang, Democratic People's Republic of Korea","email":"","description":""}},{"type":"Feature","geometry":{"type":"Point","coordinates":[0,0]},"properties":{"marker-symbol":"hs","name":"Maschinenraum","url":"http://maschinenraum.tk","address":"","email":"mr@m18.uni-weimar.de","description":""}},{"type":"Feature","geometry":{"type":"Point","coordinates":[-3.9397,51.6193]},"properties":{"marker-symbol":"hs-open","name":"Swansea Hackspace","url":"http://swansea.hackspace.org.uk/","address":"4th Floor, 11 Wind Street, Swansea, UK. SA1 1DP","email":"info@swansea.hackspace.org.uk","description":""}},{"type":"Feature","geometry":{"type":"Point","coordinates":[4.826466,52.345558]},"properties":{"marker-symbol":"hs-open","name":"Technologia Incognita","url":"http://www.techinc.nl","address":"Louwesweg 1B, 1066 EA Amsterdam","email":"hack AT techinc DOT nl","description":""}},{"type":"Feature","geometry":{"type":"Point","coordinates":[6.107725,46.25947]},"properties":{"marker-symbol":"hs-open","name":"Pangloss Labs #1","url":"http://panglosslabs.org","address":"12bis rue de Gex, 01210 Ferney-Voltaire, France","email":"enquiries@panglosslabs.org","description":"Live status using OpenHAB"}},{"type":"Feature","geometry":{"type":"Point","coordinates":[-89.867633,35.202246]},"properties":{"marker-symbol":"hs-closed","name":"MidsouthMakers","url":"http://www.midsouthmakers.org","address":"","email":"info@MidsouthMakers.org","description":""}},{"type":"Feature","geometry":{"type":"Point","coordinates":[4.433988,51.910111]},"properties":{"marker-symbol":"hs-closed","name":"Pixelbar","url":"https://pixelbar.nl","address":"Vierhavensstraat 56, 3029BG Rotterdam","email":"bestuur@pixelbar.nl","description":""}},{"type":"Feature","geometry":{"type":"Point","coordinates":[0,0]},"properties":{"marker-symbol":"hs","name":"Ace Monster Toys","url":"http://acemonstertoys.org/","address":"","email":"info@acemonstertoys.org","description":""}},{"type":"Feature","geometry":{"type":"Point","coordinates":[0,0]},"properties":{"marker-symbol":"hs","name":"MetaMeute","url":"https://metameute.de","address":"","email":"","description":""}},{"type":"Feature","geometry":{"type":"Point","coordinates":[-51.209673,-30.019816]},"properties":{"marker-symbol":"hs-closed","name":"Matehackers","url":"https://matehackers.org","address":"R. Hoffmann, 459 - Floresta - Porto Alegre - RS 90220-170, Brasil","email":"","description":""}},{"type":"Feature","geometry":{"type":"Point","coordinates":[10.5211247,52.2785658]},"properties":{"marker-symbol":"hs-open","name":"Stratum 0","url":"https://stratum0.org","address":"Hamburger Strasse 273a, Haus A2, 38114 Braunschweig, Germany","email":"kontakt@stratum0.org","description":""}},{"type":"Feature","geometry":{"type":"Point","coordinates":[-87.898484,42.998085]},"properties":{"marker-symbol":"hs","name":"Milwaukee Makerspace","url":"http://milwaukeemakerspace.org","address":"2555 South Lenox Street, Milwaukee, WI 53207, USA","email":"info@milwaukeemakerspace.org","description":""}},{"type":"Feature","geometry":{"type":"Point","coordinates":[8.7677467,50.8075289]},"properties":{"marker-symbol":"hs-open","name":"[hsmr] Hackspace Marburg","url":"https://hsmr.cc/","address":"[hsmr] Hackspace Marburg, Am Plan 3, 35037 Marburg, Germany","email":"mail@hsmr.cc","description":""}},{"type":"Feature","geometry":{"type":"Point","coordinates":[4.453435,51.208683]},"properties":{"marker-symbol":"hs-closed","name":"VoidWarranties","url":"http://we.voidwarranties.be","address":"Herrystraat 22, 2100 Deurne (Antwerp), Belgium","email":"","description":""}},{"type":"Feature","geometry":{"type":"Point","coordinates":[5.9712601,50.8924622]},"properties":{"marker-symbol":"hs-closed","name":"ACKspace","url":"https://ackspace.nl/","address":"Kloosterweg 1, 6412 CN Heerlen","email":"contact@ackspace.nl","description":"ACKspace is closed"}},{"type":"Feature","geometry":{"type":"Point","coordinates":[8.262861,47.629342]},"properties":{"marker-symbol":"hs-closed","name":"Reaktor 23","url":"http://reaktor23.org","address":"Badstrasse 29a, 79761 Tiengen, Germany","email":"info@reaktor23.org","description":"Sorry, we're closed!"}},{"type":"Feature","geometry":{"type":"Point","coordinates":[6.133659482002258,46.187134981155396]},"properties":{"marker-symbol":"hs-open","name":"Post Tenebras Lab","url":"https://www.posttenebraslab.ch","address":"Avenue de la Praille 36, 1227 Carouge, Switzerland","email":"comite@posttenebraslab.ch","description":"The lab is open - planned to be open for 5 more hours. One lonely hacker in the space.  [Set by PTL control panel]"}},{"type":"Feature","geometry":{"type":"Point","coordinates":[13.4482159,52.4937883]},"properties":{"marker-symbol":"hs-closed","name":"Motionlab Berlin","url":"https://motionlab.berlin","address":"Halle 20, Bouchestrasse 12, 12435 Berlin, Germany, Europe, Solar System, Milky Way, Universe 08/15","email":"info@motionlab.berlin","description":"Sorry we are closed"}},{"type":"Feature","geometry":{"type":"Point","coordinates":[20.28208,63.82326]},"properties":{"marker-symbol":"hs-closed","name":"Umeå Hackerspace","url":"http://umeahackerspace.se/","address":"Fabriksgatan 8b, 90331 Umeå, Sweden","email":"info@umeahackerspace.se","description":"Nu är spacet stängt"}},{"type":"Feature","geometry":{"type":"Point","coordinates":[0,0]},"properties":{"marker-symbol":"hs","name":"base48","url":"http://base48.cz/","address":"","email":"","description":""}},{"type":"Feature","geometry":{"type":"Point","coordinates":[65.025444,25.4831393]},"properties":{"marker-symbol":"hs","name":"Tarlab","url":"http://tarlab.fi","address":"Valtatie 67, 90500, Oulu, Finland","email":"","description":""}},{"type":"Feature","geometry":{"type":"Point","coordinates":[-77.338769,38.95455]},"properties":{"marker-symbol":"hs-open","name":"Nova Labs","url":"http://nova-labs.org","address":"1916 Isaac Newton Square W, Reston, VA 20190 USA","email":"info@nova-labs.org","description":""}},{"type":"Feature","geometry":{"type":"Point","coordinates":[9.399,47.712]},"properties":{"marker-symbol":"hs-open","name":"Toolbox Bodensee e.V.","url":"https://toolbox-bodensee.de","address":"Bergheimerstr. 6, 88677 Markdorf, Germany","email":"contact@toolbox-bodensee.de","description":""}},{"type":"Feature","geometry":{"type":"Point","coordinates":[4.384396,50.812915]},"properties":{"marker-symbol":"hs-closed","name":"UrLab","url":"https://urlab.be","address":"131, avenue Buyl, 1050, Bruxelles, Belgium","email":"contact@urlab.be","description":""}},{"type":"Feature","geometry":{"type":"Point","coordinates":[153.0770233,-27.4432052]},"properties":{"marker-symbol":"hs-closed","name":"HSBNE","url":"http://hsbne.org/","address":"221C Macarthur Avenue, Eagle Farm QLD 4009","email":"contact@hsbne.org","description":"Closed until Tuesday 5PM"}},{"type":"Feature","geometry":{"type":"Point","coordinates":[13.419752,52.512363]},"properties":{"marker-symbol":"hs-closed","name":"c-base","url":"http://www.c-base.org","address":"Rungestr. 20, 2. Hinterhof, 10179 Berlin, Germany","email":"info@c-base.org","description":""}},{"type":"Feature","geometry":{"type":"Point","coordinates":[0,0]},"properties":{"marker-symbol":"hs","name":"Makers Local 256","url":"https://256.makerslocal.org","address":"","email":"contact@makerslocal.org","description":""}},{"type":"Feature","geometry":{"type":"Point","coordinates":[14.8043893,50.8974715]},"properties":{"marker-symbol":"hs-closed","name":"Polytechnischer Werkraum Zittau","url":"https://werkraum.freiraumzittau.de/","address":"Wächterhaus, Innere Weberstraße 16, 02763 Zittau, Germany, Europe, Planet Earth","email":"werkraum@freiraumzittau.de","description":""}},{"type":"Feature","geometry":{"type":"Point","coordinates":[9.94526,51.54533]},"properties":{"marker-symbol":"hs-open","name":"Neotopia","url":"http://cccgoe.de","address":"Von-Bar-Str. 2-4, 37075 Goettingen, Germany","email":"hallo@cccgoe.de","description":"Space open"}},{"type":"Feature","geometry":{"type":"Point","coordinates":[6.872435,52.222388]},"properties":{"marker-symbol":"hs-open","name":"TkkrLab","url":"https://tkkrlab.nl","address":"Rigtersbleek-Zandvoort 10, 7521 BE Enschede, The Netherlands","email":"bestuur@tkkrlab.nl","description":""}},{"type":"Feature","geometry":{"type":"Point","coordinates":[-106.653,35.103]},"properties":{"marker-symbol":"hs","name":"Quelab","url":"http://quelab.net/wordpress/about","address":"680 Haines NW, Albuquerque, NM, USA","email":"info@quelab.net","description":"Members Only 24/7"}},{"type":"Feature","geometry":{"type":"Point","coordinates":[43.091857,-89.3101386]},"properties":{"marker-symbol":"hs-closed","name":"The Bodgery","url":"https://www.thebodgery.org","address":"4444 Robertson Road, Madison, WI  53714","email":"contact@thebodgery.org","description":""}},{"type":"Feature","geometry":{"type":"Point","coordinates":[10.950683,50.268509]},"properties":{"marker-symbol":"hs-closed","name":"hackzogtum","url":"http://hackzogtum-coburg.de","address":"Geleitstrasse 10, 96450 Coburg, Germany","email":"info@hackzogtum-coburg.de","description":""}},{"type":"Feature","geometry":{"type":"Point","coordinates":[15.450435,47.065554]},"properties":{"marker-symbol":"hs-open","name":"realraum","url":"https://realraum.at","address":"Brockmanngasse 15, 8010 Graz, Austria","email":"vorstand@realraum.at","description":"Leute Anwesend"}},{"type":"Feature","geometry":{"type":"Point","coordinates":[-82.527661,27.954423]},"properties":{"marker-symbol":"hs-closed","name":"Tampa Hackerspace","url":"http://tampahackerspace.com","address":"4931 W. Nassau St., Tampa, FL 33607","email":"info@tampahackerspace.com","description":"Open 24/7 for members. See calendar for events open to everyone."}},{"type":"Feature","geometry":{"type":"Point","coordinates":[9.19997,47.77252]},"properties":{"marker-symbol":"hs-closed","name":"see-base","url":"https://see-base.de","address":"Rengoldshauserstr., 88662 Ueberlingen, Germany","email":"kommunikation@see-base.de","description":""}},{"type":"Feature","geometry":{"type":"Point","coordinates":[9.946661,53.5498443]},"properties":{"marker-symbol":"hs-closed","name":"Attraktor Makerspace","url":"https://www.attraktor.org/","address":"Eschelsweg 4, 22767 Hamburg, Germany","email":"office@attraktor.org","description":"Geschlossen"}},{"type":"Feature","geometry":{"type":"Point","coordinates":[9.442367,54.791614]},"properties":{"marker-symbol":"hs-closed","name":"nordlab e. V.","url":"http://nordlab-ev.de","address":"nordlab e. V., Offener Kanal Flensburg, St.-Jürgen-Straße 95, 24937 Flensburg","email":"","description":""}},{"type":"Feature","geometry":{"type":"Point","coordinates":[13.72358,51.02709]},"properties":{"marker-symbol":"hs-closed","name":"turmlabor","url":"http://www.turmlabor.de","address":"Hochschulgruppe Turmlabor, c/o Fachschaftsrat Elektrotechnik, Helmholzstr. 18, Technische UniversitÃ¤t Dresden, 01062 Dresden, Germany","email":"nachtsnochlicht@turmlabor.de","description":""}},{"type":"Feature","geometry":{"type":"Point","coordinates":[7.69803,51.37435]},"properties":{"marker-symbol":"hs-open","name":"Chaosconsulting","url":"http://chaos-consulting.de","address":"Alter Rathausplatz 12, 58636 Iserlohn, Germany","email":"","description":""}},{"type":"Feature","geometry":{"type":"Point","coordinates":[10.6852,53.8683]},"properties":{"marker-symbol":"hs-open","name":"nbsp","url":"http://chaotikum.org","address":"Mengstraße 6, 23552 Lübeck, Germany","email":"info+spaceapi@chaotikum.org","description":""}},{"type":"Feature","geometry":{"type":"Point","coordinates":[8.456495,48.065003]},"properties":{"marker-symbol":"hs-closed","name":"vspace.one","url":"https://vspace.one","address":"Wilhelm-Binder-Str. 19, 78048 VS-Villingen, Germany","email":"info@vspace.one","description":""}},{"type":"Feature","geometry":{"type":"Point","coordinates":[-26.709,27.833]},"properties":{"marker-symbol":"hs-closed","name":"BinarySpace","url":"http://www.binaryspace.co.za/","address":"Chesterton Street, Vanderbijlpark, South Africa","email":"","description":""}},{"type":"Feature","geometry":{"type":"Point","coordinates":[8.09399,53.517267]},"properties":{"marker-symbol":"hs-open","name":"Do It Yourself Werkstatt Wilhelmshaven","url":"http://www.diyww.de/","address":"Kreuzstraße 54, 26382 Wilhelmshaven, Germany","email":"info@diyww.de","description":""}},{"type":"Feature","geometry":{"type":"Point","coordinates":[9.4848149,51.3182536]},"properties":{"marker-symbol":"hs-open","name":"flipdot","url":"https://flipdot.org","address":"Franz-Ulrich-Straße 18, 34117 Kassel","email":"com@flipdot.org","description":""}},{"type":"Feature","geometry":{"type":"Point","coordinates":[9.9904232,48.3964563]},"properties":{"marker-symbol":"hs-closed","name":"verschwoerhaus","url":"https://verschwoerhaus.de","address":"Weinhof 9, 89073 Ulm, Germany","email":"weinhof9@weinhof9.de","description":""}},{"type":"Feature","geometry":{"type":"Point","coordinates":[6.07057,49.61629]},"properties":{"marker-symbol":"hs-open","name":"Level2","url":"https://level2.lu","address":"87, route de Thionville, L-2611 Bonnevoie, Luxembourg","email":"info@syn2cat.lu","description":""}},{"type":"Feature","geometry":{"type":"Point","coordinates":[9.236,48.777]},"properties":{"marker-symbol":"hs-open","name":"shackspace - stuttgart hackerspace","url":"https://shackspace.de","address":"Ulmer Strasse 255, 70327 Stuttgart, Germany","email":"kontakt@shackspace.de","description":""}},{"type":"Feature","geometry":{"type":"Point","coordinates":[52.512815,13.4493919]},"properties":{"marker-symbol":"hs-closed","name":"xHain","url":"https://x-hain.de","address":"xHain hack+makespace, Grünberger Straße 14, 10243 Berlin, Germany","email":"x-hain@posteo.de","description":""}},{"type":"Feature","geometry":{"type":"Point","coordinates":[7.4649449,51.527611]},"properties":{"marker-symbol":"hs-open","name":"Chaostreff Dortmund","url":"http://www.chaostreff-dortmund.de/","address":"Braunschweiger Str 22, 44145 Dortmund, Germany","email":"","description":""}},{"type":"Feature","geometry":{"type":"Point","coordinates":[7.1690101828426,51.62435592244]},"properties":{"marker-symbol":"hs-closed","name":"Chaostreff Recklinghausen c3RE","url":"http://c3re.de","address":"Westcharweg 101, 45659 Recklinghausen","email":"Chaostreff@c3RE.de","description":""}},{"type":"Feature","geometry":{"type":"Point","coordinates":[-119.84842,34.43237]},"properties":{"marker-symbol":"hs-open","name":"TechTonik Labs","url":"http://sbhackerspace.com","address":"158 Aero Camino, Suite D Santa Barbara, CA 93117","email":"","description":""}},{"type":"Feature","geometry":{"type":"Point","coordinates":[6.973817,49.240431]},"properties":{"marker-symbol":"hs-closed","name":"Hacksaar","url":"https://www.hacksaar.de","address":"St.-Josef-Strasse 8, 66115 Saarbrcken, Germany","email":"vorstand@hacksaar.de","description":""}},{"type":"Feature","geometry":{"type":"Point","coordinates":[23.73124,38.01695]},"properties":{"marker-symbol":"hs-closed","name":"Hackerspace.gr","url":"https://www.hackerspace.gr","address":"Ampatielou 11, 11144 Athens, Greece","email":"","description":"0 hacker(s) in space"}},{"type":"Feature","geometry":{"type":"Point","coordinates":[10.886797,48.35771]},"properties":{"marker-symbol":"hs-open","name":"OpenLab Augsburg","url":"https://openlab-augsburg.de","address":"Elisenstr. 1, 86159 Augsburg, Germany","email":"kontakt@openlab-augsburg.de","description":""}},{"type":"Feature","geometry":{"type":"Point","coordinates":[6.07057,49.61629]},"properties":{"marker-symbol":"hs-open","name":"Level2","url":"https://level2.lu","address":"87, route de Thionville, L-2611 Bonnevoie, Luxembourg","email":"info@syn2cat.lu","description":""}},{"type":"Feature","geometry":{"type":"Point","coordinates":[8.6939,49.40792]},"properties":{"marker-symbol":"hs-closed","name":"DAI Makerspace","url":"https://dai-heidelberg.de/de/bibliothek-usa-information/makerspace/","address":"Sofienstraße 12, 69115 Heidelberg, Germany","email":"makerspace@dai-heidelberg.de","description":""}},{"type":"Feature","geometry":{"type":"Point","coordinates":[-3.18162,55.939797]},"properties":{"marker-symbol":"hs-closed","name":"Edinburgh Hacklab","url":"http://edinburghhacklab.com/","address":"1 Summerhall, Edinburgh, EH9 1PL, United Kingdom","email":"info@edinburghhacklab.com","description":"Someone is here."}},{"type":"Feature","geometry":{"type":"Point","coordinates":[7.2108,51.49367]},"properties":{"marker-symbol":"hs-closed","name":"spaceleft","url":"https://www.space-left.org","address":"Josephstr. 2, 44791 Bochum, Germany","email":"left-space@nerilex.org","description":""}},{"type":"Feature","geometry":{"type":"Point","coordinates":[7.827517,48.005653]},"properties":{"marker-symbol":"hs-closed","name":"CCCFr","url":"https://cccfr.de","address":"Dunantstrasse 16a, 79110 Freiburg, Deutschland","email":"","description":""}},{"type":"Feature","geometry":{"type":"Point","coordinates":[19.943359,50.066085]},"properties":{"marker-symbol":"hs-open","name":"Hackerspace KRK","url":"http://hackerspace-krk.pl","address":"Zacisze 5/P1, 31-156 Kraków, Poland","email":"info@hackerspace-krk.pl","description":""}},{"type":"Feature","geometry":{"type":"Point","coordinates":[10.892739,49.901927]},"properties":{"marker-symbol":"hs-open","name":"backspace","url":"https://www.hackerspace-bamberg.de","address":"Spiegelgraben 41, 96052 Bamberg, Bavaria, Germany","email":"info@hackerspace-bamberg.de","description":""}},{"type":"Feature","geometry":{"type":"Point","coordinates":[-36.860094,174.755214]},"properties":{"marker-symbol":"hs-open","name":"Tangleball","url":"http://www.tangleball.org.nz/","address":"27 Edinburgh St, Newton, Auckland, New Zealand","email":"contact@tangleball.org.nz","description":""}},{"type":"Feature","geometry":{"type":"Point","coordinates":[23.32527086,42.70789247]},"properties":{"marker-symbol":"hs-open","name":"init Lab","url":"https://initlab.org","address":"floor 2, 6 Rila str., Sofia, Bulgaria","email":"","description":""}},{"type":"Feature","geometry":{"type":"Point","coordinates":[115.810136,-31.901846]},"properties":{"marker-symbol":"hs-closed","name":"Perth Artifactory","url":"http://artifactory.org.au/","address":"8/16 Guthrie Street, Osborne Park, WA 6017","email":"info@artifactory.org.au","description":""}},{"type":"Feature","geometry":{"type":"Point","coordinates":[20.98485,52.2416]},"properties":{"marker-symbol":"hs-closed","name":"Warsaw Hackerspace","url":"https://hackerspace.pl","address":"ul. Wolność 2A, 01-018 Warszawa, Poland","email":"","description":"members only"}},{"type":"Feature","geometry":{"type":"Point","coordinates":[11.38182,48.77082]},"properties":{"marker-symbol":"hs-open","name":"bytewerk","url":"http://bytewerk.org","address":"Krumenauerstraße 54, 85049 Ingolstadt, Germany","email":"","description":""}},{"type":"Feature","geometry":{"type":"Point","coordinates":[27.59749,53.94287]},"properties":{"marker-symbol":"hs-closed","name":"Minsk Hackerspace","url":"https://hackerspace.by","address":"Basement near the entrance 3, vul. Biady 45, Minsk, Belarus","email":"info@hackerspace.by","description":""}},{"type":"Feature","geometry":{"type":"Point","coordinates":[11.99221,51.47996]},"properties":{"marker-symbol":"hs-closed","name":"Terminal.21 Basislager","url":"http://www.terminal21.de","address":"Landsberger Straße 3, 06112 Halle, Germany","email":"kontakt@terminal21.de","description":""}},{"type":"Feature","geometry":{"type":"Point","coordinates":[0,0]},"properties":{"marker-symbol":"hs","name":"Sudo Room","url":"http://sudoroom.org/","address":"","email":"info@sudoroom.org","description":""}},{"type":"Feature","geometry":{"type":"Point","coordinates":[0,0]},"properties":{"marker-symbol":"hs","name":"HeatSync Labs","url":"http://www.heatsynclabs.org","address":"","email":"","description":""}},{"type":"Feature","geometry":{"type":"Point","coordinates":[-1.135,52.9557]},"properties":{"marker-symbol":"hs-open","name":"Nottinghack","url":"http://www.nottinghack.org.uk","address":"Unit F6, Roden House Business Centre, Alfred Street South, Nottingham, NG3 1JH","email":"","description":"Last man out switch: Open, 6 network devices seen in the last 10 minutes (most recent 1m ago). The door was last open 3m ago (and is open NOW)."}}]}